{
	"time": {
		"entries": [
			{
				"name":"timestamp",
				"type":"time",
				"intervals": [
					{
						"label":"Morning",
						"from":6,
						"to":10
					},
					{
						"label":"Day",
						"from":10,
						"to":12
					},
					{
						"label":"Afternoon",
						"from":12,
						"to":18
					},
					{
						"label":"Evening",
						"from":18,
						"to":21
					},
					{
						"label":"Night",
						"from":21,
						"to":7
					}
				]
			}
		]
	},
		
	"locations": {
		"entries": [
			{
			        "name":"geographical",
				"table":"locations",
				"column_x":"double_latitude",
				"column_y":"double_longitude",
				"type": "area",
				"intervals": [
					{
						"label": "AGH",
						"vertices": [
							{
								"latitude":50.066459,
								"longitude":19.926258
							},
							{
								"latitude":50.061400,
								"longitude":19.924912
							},
							{
								"latitude":50.067130,
								"longitude":19.897875
							},
							{
								"latitude":50.071567,
								"longitude":19.900858
							}
						]
					},
					{
						"label": "City Centre",
						"vertices": [
							{
								"latitude":50.0662986,
								"longitude":19.9224155
							},
							{
								"latitude":50.0662978,
								"longitude":19.9224133
							},
							{
								"latitude":50.0662923,
								"longitude":19.9224122
							}
						]
					},
					{
						"label": "House",
						"vertices": [
							{
								"latitude":50.015723,
								"longitude":19.989874
							},
							{
								"latitude":50.013669,
								"longitude":19.987535
							},
							{
								"latitude":50.015668,
								"longitude":19.982878
							},
							{
								"latitude":50.018260,
								"longitude":19.986440
							}
						]
 					},
					{
						"label": "Commuting",
						"vertices": [
							{
								"latitude":50.056538,
								"longitude":19.919988
							},
							{
								"latitude":50.060065,
								"longitude":19.951402
							},
							{
								"latitude":50.024566,
								"longitude":19.984361
							},
							{
								"latitude":50.014189,
								"longitude":19.957299
							}
						]
 					}		
				]
			},
			{
			        "name":"speed",
				"table":"locations",
				"column":"double_speed",
				"type":"interval",
				"intervals": [
					{
						"label": "Still",
						"from":0,
						"to":1
					},
					{
						"label": "Walking",
						"from":1,
						"to":6
					},
					{
						"label": "Bike",
						"from":6,
						"to":30
					},
					{
						"label": "Vehicle",
						"from":30,
						"to":100
					}
				]
			}
		]
	},

	"activities": {
		"entries": [
			{
				"name":"name",
				"table":"plugin_google_activity_recognition",
				"column":"activity_name",
				"type":"labeled",
				"intervals":[
					{
						"label":"Still",
						"included": [
							"still"
						]
					},
					{
						"label":"Walking",
						"included": [
							"on_foot"
						]
					},
					{
						"label":"Bike",
						"included": [
							"on_bicycle"
						]
					},
					{
						"label":"Vehicle",
						"included": [
							"in_vehicle"
						]
					}
				]
			},
			{
				"name":"confidence",
				"table":"plugin_google_activity_recognition",
				"column":"confidence",
				"type":"interval",
				"intervals": [
					{
						"label":"Low",
						"from":0,
						"to":25
					},
					{
						"label":"Medium",
						"from":25,
						"to":50
					},
					{
						"label":"High",
						"from":50,
						"to":75
					},
					{
						"label":"Very High",
						"from":75,
						"to":100
					}
				]
			}
		]
	},

	"network": {
		"entries": [
			{
				"name":"received_bytes",
				"table":"network_traffic",
				"column":"double_received_bytes",
				"type":"sum_interval",
				"window":5,
				"intervals": [
					{
						"label":"Low",
						"from":0,
						"to":102400
					},
					{
						"label":"Medium",
						"from":102400,
						"to":1024000
					},
					{
						"label":"High",
						"from":1024000,
						"to":99999999
					}
				]
			},
			{
				"name":"sent_bytes",
				"table":"network_traffic",
				"column":"double_sent_bytes",
				"type":"sum_interval",
				"window":5,
				"intervals": [
					{
						"label":"Low",
						"from":0,
						"to":51200
					},
					{
						"label":"Medium",
						"from":51200,
						"to":5120000
					},
					{
						"label":"High",
						"from":5120000,
						"to":99999999
					}
				]
			},
			{
				"name":"received_packets",
				"table":"network_traffic",
				"column":"double_received_packets",
				"type":"sum_interval",
				"window":5,
				"intervals": [
					{
						"label":"Low",
						"from":0,
						"to":100
					},
					{
						"label":"Medium",
						"from":100,
						"to":1000
					},
					{
						"label":"High",
						"from":1000,
						"to":9999
					}
				]
			},
			{
				"name":"sent_packets",
				"table":"network_traffic",
				"column":"double_sent_packets",
				"type":"sum_interval",
				"window":5,
				"intervals": [
					{
						"label":"Low",
						"from":0,
						"to":50
					},
					{
						"label":"Medium",
						"from":50,
						"to":500
					},
					{
						"label":"High",
						"from":500,
						"to":9999
					}
				]
			}
		]
	},
	
	"applications": {
		"entries": [
			{
				"name":"name",
				"table":"applications_history",
				"column":"application_name",
				"type":"labeled",
				"intervals": [
					{
						"label":"Mailing",
						"included": [
							"E-mail",
							"Gmail"
						]
					},
					{
						"label":"Social",
						"included": [
							"Facebook",
							"Twitter",
							"Google+",
							"LinkedIn"
						]
					},
					{
						"label":"Communicators",
						"included": [
							"Messenger",
							"Hangouts",
							"Google+",
							"Message"
						]
					},
					{
						"label":"Games",
						"included": [
							"Angry Birds",
							"Candy Crush"
						]
					},
					{
						"label":"System",
						"included": [
							"Program uruchamiaj?cy",
							"Mened?er",
							"Mened?er zada?",
							"Pami?? kalendarza",
							"Aktualiz. oprogramow."
						]
					},
										{
						"label":"News and Weather",
						"included": [
							"AccuWeather.com",
							"Wiadomo?ci"
						]
					},
					{
						"label":"Google Play",
						"included": [
							"Us?ugi Google Play",
							"Sklep Google Play"
						]
					},
				    {
					    "label":"TTS",
					    "included": [
						"Mechanizm Google przetwarzania tekstu na mow?"
						]
					}
				]
			},
			{
				"name":"usage_time",
				"table":"applications_history",
				"column":"double_end_timestamp",
				"type":"difference_interval",
				"intervals": [
					{
						"label":"Short",
						"from":0,
						"to":60
					},
					{
						"label":"Normal",
						"from":60,
						"to":300
					},
					{
						"label":"Long",
						"from":300,
						"to":3600
					},
					{
						"label":"Ultra long",
						"from":3600,
						"to":86400
					}
				]
			}
		]
	}
}
